{
    "N13147": {
        "voisins": [
            "N13149",
            "N13148",
            "N13145"
        ],
        "incidence": [
            "T119",
            "T25435",
            "T146"
        ],
        "nom": "PRIMAT|CAROTTE",
        "geometry": {
            "type": "Point",
            "coordinates": [
                4.89488537,
                45.75820525
            ]
        }
    },
    "N13149": {
        "voisins": [
            "N13147",
            "N13150",
            "N13146"
        ],
        "incidence": [
            "T119",
            "T25470",
            "T1043"
        ],
        "nom": "CAROTTE|BLUM",
        "geometry": {
            "type": "Point",
            "coordinates": [
                4.89486219,
                45.75982291
            ]
        }
    },
    "N13148": {
        "voisins": [
            "N13147",
            "N13150",
            "N11318"
        ],
        "incidence": [
            "T25435",
            "T462",
            "T456"
        ],
        "nom": "PRIMAT|DUCROIZE",
        "geometry": {
            "type": "Point",
            "coordinates": [
                4.89539092,
                45.75821951
            ]
        }
    },
    "N13145": {
        "voisins": [
            "N13147",
            "N13143",
            "N13146"
        ],
        "incidence": [
            "T146",
            "T25430",
            "T14346"
        ],
        "nom": "PRIMAT|POIZAT",
        "geometry": {
            "type": "Point",
            "coordinates": [
                4.89330719,
                45.75816789
            ]
        }
    },
    "N13854": {
        "voisins": [
            "N13853",
            "N20247",
            "N20246"
        ],
        "incidence": [
            "T25426",
            "T28932",
            "T28931"
        ],
        "nom": "JAURES|ARAGO",
        "geometry": {
            "type": "Point",
            "coordinates": [
                4.88394516,
                45.75786493
            ]
        }
    },
    "N13853": {
        "voisins": [
            "N13854",
            "N13139",
            "N13160",
            "N13217"
        ],
        "incidence": [
            "T25426",
            "T301",
            "T302",
            "T14860"
        ],
        "nom": "PERRIN|JAURES|GRANDCLEMENT",
        "geometry": {
            "type": "Point",
            "coordinates": [
                4.88514079,
                45.75814906
            ]
        }
    },
    "N20247": {
        "voisins": [
            "N13854",
            "N20246",
            "N2757"
        ],
        "incidence": [
            "T28932",
            "T28934",
            "T28933"
        ],
        "nom": "JOLY|ARAGO",
        "geometry": {
            "type": "Point",
            "coordinates": [
                4.88405512,
                45.75727223
            ]
        }
    },
    "N20246": {
        "voisins": [
            "N13854",
            "N13140",
            "N20247"
        ],
        "incidence": [
            "T28931",
            "T28930",
            "T28934"
        ],
        "nom": "JOLY|JAURES",
        "geometry": {
            "type": "Point",
            "coordinates": [
                4.88361688,
                45.75779224
            ]
        }
    },
    "N14004": {
        "voisins": [
            "N14119",
            "N13409",
            "N14005",
            "N14245"
        ],
        "incidence": [
            "T453",
            "T138",
            "T25437",
            "T25438"
        ],
        "nom": "FAYS|EST",
        "geometry": {
            "type": "Point",
            "coordinates": [
                4.90792199,
                45.75788701
            ]
        }
    },
    "N14119": {
        "voisins": [
            "N14004",
            "N11406",
            "N14118",
            "N32931"
        ],
        "incidence": [
            "T453",
            "T25398",
            "T15775",
            "T413",
            "T52801"
        ],
        "nom": "EST|CYPRIAN|BAREL",
        "geometry": {
            "type": "Point",
            "coordinates": [
                4.90199758,
                45.75726708
            ]
        }
    },
    "N13409": {
        "voisins": [
            "N14004",
            "N34171",
            "N13406",
            "N13183",
            "N32607",
            "N32417"
        ],
        "incidence": [
            "T138",
            "T54456",
            "T51771",
            "T344",
            "T4682",
            "T54058",
            "T51922"
        ],
        "nom": "FAYS|BLUM",
        "geometry": {
            "type": "Point",
            "coordinates": [
                4.90555941,
                45.76059747
            ]
        }
    },
    "N14005": {
        "voisins": [
            "N14004",
            "N14006",
            "N14251"
        ],
        "incidence": [
            "T25437",
            "T418",
            "T25442"
        ],
        "nom": "SANS|FAYS",
        "geometry": {
            "type": "Point",
            "coordinates": [
                4.90854804,
                45.75718069
            ]
        }
    },
    "N14245": {
        "voisins": [
            "N14004",
            "N30336",
            "N14016"
        ],
        "incidence": [
            "T25438",
            "T48585",
            "T4794"
        ],
        "nom": "SANS|EST",
        "geometry": {
            "type": "Point",
            "coordinates": [
                4.90874747,
                45.75806307
            ]
        }
    },
    "N10808": {
        "voisins": [
            "N13675",
            "N13676",
            "N13678"
        ],
        "incidence": [
            "T292",
            "T25647",
            "T25650"
        ],
        "nom": "VOYANT|CALMETTE",
        "geometry": {
            "type": "Point",
            "coordinates": [
                4.89855787,
                45.77283649
            ]
        }
    },
    "N13675": {
        "voisins": [
            "N10808",
            "N11145",
            "N13679"
        ],
        "incidence": [
            "T292",
            "T25641",
            "T25644"
        ],
        "nom": "CALMETTE|1945",
        "geometry": {
            "type": "Point",
            "coordinates": [
                4.89593931,
                45.77275441
            ]
        }
    },
    "N13676": {
        "voisins": [
            "N10808",
            "N14223",
            "N13677"
        ],
        "incidence": [
            "T25647",
            "T290",
            "T25649"
        ],
        "nom": "VOYANT|DEAUVILLE",
        "geometry": {
            "type": "Point",
            "coordinates": [
                4.89856431,
                45.77251237
            ]
        }
    },
    "N13678": {
        "voisins": [
            "N10808",
            "N13682",
            "N13681"
        ],
        "incidence": [
            "T25650",
            "T25717",
            "T25269"
        ],
        "nom": "VOYANT|MULHOUSE",
        "geometry": {
            "type": "Point",
            "coordinates": [
                4.89856847,
                45.77355175
            ]
        }
    },
    "N13253": {
        "voisins": [
            "N11150",
            "N13251",
            "N11207",
            "N13252"
        ],
        "incidence": [
            "T25587",
            "T25586",
            "T25591",
            "T326"
        ],
        "nom": "NOVEL|DUTRIEVOZ",
        "geometry": {
            "type": "Point",
            "coordinates": [
                4.86184895,
                45.77196967
            ]
        }
    },
    "N11150": {
        "voisins": [
            "N13253",
            "N13782",
            "N3634",
            "N3899"
        ],
        "incidence": [
            "T25587",
            "T25588",
            "T696",
            "T26504"
        ],
        "nom": "NOVEL|DAYAN",
        "geometry": {
            "type": "Point",
            "coordinates": [
                4.8609184,
                45.77201837
            ]
        }
    },
    "N13251": {
        "voisins": [
            "N13253",
            "N3643",
            "N13250",
            "N3641"
        ],
        "incidence": [
            "T25586",
            "T697",
            "T327",
            "T78"
        ],
        "nom": "HANOI|DUTRIEVOZ",
        "geometry": {
            "type": "Point",
            "coordinates": [
                4.86179175,
                45.7714512
            ]
        }
    },
    "N11207": {
        "voisins": [
            "N13253",
            "N13782",
            "N13213",
            "N13255"
        ],
        "incidence": [
            "T25591",
            "T39238",
            "T25585",
            "T48461",
            "T323",
            "T39239"
        ],
        "nom": "PHILIP|DUTRIEVOZ",
        "geometry": {
            "type": "Point",
            "coordinates": [
                4.86192139,
                45.77267131
            ]
        }
    },
    "N13252": {
        "voisins": [
            "N13253",
            "N13255",
            "N13250"
        ],
        "incidence": [
            "T326",
            "T25598",
            "T25606"
        ],
        "nom": "ROLLAND|NOVEL",
        "geometry": {
            "type": "Point",
            "coordinates": [
                4.86309093,
                45.77189984
            ]
        }
    },
    "N14096": {
        "voisins": [
            "N13351",
            "N14321",
            "N13764"
        ],
        "incidence": [
            "T25789",
            "T25251",
            "T25219"
        ],
        "nom": "SALENGRO|LUIZET",
        "geometry": {
            "type": "Point",
            "coordinates": [
                4.88477135,
                45.78109386
            ]
        }
    },
    "N13351": {
        "voisins": [
            "N14096",
            "N30149",
            "N13941",
            "N14097"
        ],
        "incidence": [
            "T25789",
            "T28982",
            "T25786",
            "T40515",
            "T25255"
        ],
        "nom": "SALENGRO|LUIZET|DUNIERE",
        "geometry": {
            "type": "Point",
            "coordinates": [
                4.88436565,
                45.78098006
            ]
        }
    },
    "N14321": {
        "voisins": [
            "N14096",
            "N14322",
            "N13764"
        ],
        "incidence": [
            "T25251",
            "T25810",
            "T25250"
        ],
        "nom": "LUIZET|BREDY",
        "geometry": {
            "type": "Point",
            "coordinates": [
                4.88497631,
                45.78361244
            ]
        }
    },
    "N13764": {
        "voisins": [
            "N14096",
            "N14321",
            "N13765",
            "N13768"
        ],
        "incidence": [
            "T25219",
            "T25250",
            "T25792",
            "T25812"
        ],
        "nom": "SALENGRO|LONGCHAMP|BREDY",
        "geometry": {
            "type": "Point",
            "coordinates": [
                4.88633458,
                45.78149898
            ]
        }
    },
    "N13775": {
        "voisins": [
            "N13935",
            "N13939",
            "N14097"
        ],
        "incidence": [
            "T25262",
            "T25247",
            "T25754"
        ],
        "nom": "GAILLARD|FILATURE|BIENVENUS|ARMAND",
        "geometry": {
            "type": "Point",
            "coordinates": [
                4.88378534,
                45.77834214
            ]
        }
    },
    "N13935": {
        "voisins": [
            "N13775",
            "N13934",
            "N13933",
            "N14094"
        ],
        "incidence": [
            "T25262",
            "T25238",
            "T25214",
            "T25244"
        ],
        "nom": "FILATURE|ALLIES",
        "geometry": {
            "type": "Point",
            "coordinates": [
                4.88152113,
                45.77779367
            ]
        }
    },
    "N13939": {
        "voisins": [
            "N13775",
            "N20267",
            "N13938"
        ],
        "incidence": [
            "T25247",
            "T28973",
            "T25787"
        ],
        "nom": "GAILLARD|BASILE",
        "geometry": {
            "type": "Point",
            "coordinates": [
                4.88345437,
                45.7792931
            ]
        }
    },
    "N14097": {
        "voisins": [
            "N13775",
            "N13351",
            "N13769"
        ],
        "incidence": [
            "T25754",
            "T25255",
            "T18912"
        ],
        "nom": "DUNIERE|ARMAND",
        "geometry": {
            "type": "Point",
            "coordinates": [
                4.88501858,
                45.77879729
            ]
        }
    },
    "N13061": {
        "voisins": [
            "N13062",
            "N11420",
            "N13063"
        ],
        "incidence": [
            "T25423",
            "T25458",
            "T353"
        ],
        "nom": "LEVANT|ENFANCE",
        "geometry": {
            "type": "Point",
            "coordinates": [
                4.87887557,
                45.75996835
            ]
        }
    },
    "N13062": {
        "voisins": [
            "N13061",
            "N13060"
        ],
        "incidence": [
            "T25423",
            "T25422"
        ],
        "nom": "ENFANCE|COUCHANT",
        "geometry": {
            "type": "Point",
            "coordinates": [
                4.878637,
                45.75965386
            ]
        }
    },
    "N11420": {
        "voisins": [
            "N13061",
            "N13064",
            "N13051"
        ],
        "incidence": [
            "T25458",
            "T1045",
            "T356"
        ],
        "nom": "LAFONTAINE|ENFANCE",
        "geometry": {
            "type": "Point",
            "coordinates": [
                4.87918593,
                45.7605315
            ]
        }
    },
    "N13063": {
        "voisins": [
            "N13061",
            "N13064",
            "N13066"
        ],
        "incidence": [
            "T353",
            "T25424",
            "T465"
        ],
        "nom": "LEVANT|FLORIAN",
        "geometry": {
            "type": "Point",
            "coordinates": [
                4.88067182,
                45.75946282
            ]
        }
    },
    "N13783": {
        "voisins": [
            "N11205",
            "N13780",
            "N13786"
        ],
        "incidence": [
            "T25589",
            "T25593",
            "T48372"
        ],
        "nom": "MALLE|GUERIN",
        "geometry": {
            "type": "Point",
            "coordinates": [
                4.85979229,
                45.77339078
            ]
        }
    },
    "N11205": {
        "voisins": [
            "N13783",
            "N13782",
            "N13787"
        ],
        "incidence": [
            "T25589",
            "T25590",
            "T310"
        ],
        "nom": "MALLE|DAYAN",
        "geometry": {
            "type": "Point",
            "coordinates": [
                4.86107142,
                45.77331938
            ]
        }
    },
    "N13780": {
        "voisins": [
            "N13783",
            "N13779",
            "N13782",
            "N13781"
        ],
        "incidence": [
            "T25593",
            "T39236",
            "T14983",
            "T39237",
            "T25584",
            "T71"
        ],
        "nom": "PHILIP|GUERIN",
        "geometry": {
            "type": "Point",
            "coordinates": [
                4.85972732,
                45.77281213
            ]
        }
    },
    "N13786": {
        "voisins": [
            "N13783",
            "N13791",
            "N13787",
            "N13785"
        ],
        "incidence": [
            "T48372",
            "T25159",
            "T25659",
            "T25658"
        ],
        "nom": "GUERIN|CHAPLIN",
        "geometry": {
            "type": "Point",
            "coordinates": [
                4.85992088,
                45.77453846
            ]
        }
    },
    "N19518": {
        "voisins": [
            "N19517"
        ],
        "incidence": [
            "T27229"
        ],
        "nom": "INSALIENS",
        "geometry": {
            "type": "Point",
            "coordinates": [
                4.87328457,
                45.78034099
            ]
        }
    },
    "N19517": {
        "voisins": [
            "N19518",
            "N19513",
            "N19488"
        ],
        "incidence": [
            "T27229",
            "T27228",
            "T27227"
        ],
        "nom": "INSALIENS|CAPELLE",
        "geometry": {
            "type": "Point",
            "coordinates": [
                4.87278825,
                45.78137627
            ]
        }
    },
    "N14267": {
        "voisins": [
            "N14272",
            "N14266",
            "N14268"
        ],
        "incidence": [
            "T25282",
            "T25799",
            "T25281"
        ],
        "nom": "ROULET|JARDINS",
        "geometry": {
            "type": "Point",
            "coordinates": [
                4.90370813,
                45.77860095
            ]
        }
    },
    "N14272": {
        "voisins": [
            "N14267",
            "N14273",
            "N14255",
            "N20310"
        ],
        "incidence": [
            "T25282",
            "T25293",
            "T25277",
            "T29074"
        ],
        "nom": "ROULET|CORNU|BLE",
        "geometry": {
            "type": "Point",
            "coordinates": [
                4.90240183,
                45.7785534
            ]
        }
    },
    "N14266": {
        "voisins": [
            "N14267",
            "N14257",
            "N14265"
        ],
        "incidence": [
            "T25799",
            "T25283",
            "T25280"
        ],
        "nom": "JARDINS|DESIR",
        "geometry": {
            "type": "Point",
            "coordinates": [
                4.90369376,
                45.77831957
            ]
        }
    },
    "N14268": {
        "voisins": [
            "N14267",
            "N14281",
            "N14279"
        ],
        "incidence": [
            "T25281",
            "T25286",
            "T25801"
        ],
        "nom": "MENS|JARDINS",
        "geometry": {
            "type": "Point",
            "coordinates": [
                4.90354833,
                45.78009805
            ]
        }
    },
    "N11389": {
        "voisins": [
            "N11388",
            "N13072",
            "N11409"
        ],
        "incidence": [
            "T12018",
            "T308",
            "T25459"
        ],
        "nom": "VERLAINE|MURIERS",
        "geometry": {
            "type": "Point",
            "coordinates": [
                4.8807018,
                45.76255439
            ]
        }
    },
    "N11388": {
        "voisins": [
            "N11389",
            "N13073",
            "N11410",
            "N11415"
        ],
        "incidence": [
            "T12018",
            "T14275",
            "T12048",
            "T14276"
        ],
        "nom": "MURIERS|MONTALAND",
        "geometry": {
            "type": "Point",
            "coordinates": [
                4.8819258,
                45.76259463
            ]
        }
    },
    "N13072": {
        "voisins": [
            "N11389",
            "N13042",
            "N13073"
        ],
        "incidence": [
            "T308",
            "T24078",
            "T14267"
        ],
        "nom": "VERLAINE|NORD",
        "geometry": {
            "type": "Point",
            "coordinates": [
                4.88053764,
                45.76374856
            ]
        }
    },
    "N11409": {
        "voisins": [
            "N11389",
            "N11410",
            "N30263",
            "N32281"
        ],
        "incidence": [
            "T25459",
            "T12047",
            "T51735",
            "T48467",
            "T51734",
            "T12046"
        ],
        "nom": "VERLAINE|TOLSTOI|FLORIAN",
        "geometry": {
            "type": "Point",
            "coordinates": [
                4.88076272,
                45.76200445
            ]
        }
    },
    "N30441": {
        "voisins": [
            "N30456",
            "N30444",
            "N30471"
        ],
        "incidence": [
            "T48792",
            "T48780",
            "T48817"
        ],
        "nom": "TARO|MAKEBA|DECOMBEROUSSE",
        "geometry": {
            "type": "Point",
            "coordinates": [
                4.91915031,
                45.76071032
            ]
        }
    },
    "N30456": {
        "voisins": [
            "N30441"
        ],
        "incidence": [
            "T48792"
        ],
        "nom": "MAKEBA",
        "geometry": {
            "type": "Point",
            "coordinates": [
                4.91982669,
                45.76083356
            ]
        }
    },
    "N30444": {
        "voisins": [
            "N30441",
            "N30472",
            "N30445",
            "N30442"
        ],
        "incidence": [
            "T48780",
            "T48820",
            "T48782",
            "T48779"
        ],
        "nom": "TARO|DJEBAR",
        "geometry": {
            "type": "Point",
            "coordinates": [
                4.91776862,
                45.76064235
            ]
        }
    },
    "N30471": {
        "voisins": [
            "N30441",
            "N30594",
            "N30472",
            "N30443"
        ],
        "incidence": [
            "T48817",
            "T49048",
            "T49495",
            "T48818"
        ],
        "nom": "GOUGES|DECOMBEROUSSE",
        "geometry": {
            "type": "Point",
            "coordinates": [
                4.91799216,
                45.76124566
            ]
        }
    },
    "N11148": {
        "voisins": [
            "N13754",
            "N30210",
            "N13757"
        ],
        "incidence": [
            "T25767",
            "T48389",
            "T25231"
        ],
        "nom": "RENE|BUERS|1945",
        "geometry": {
            "type": "Point",
            "coordinates": [
                4.89198575,
                45.77870337
            ]
        }
    },
    "N13754": {
        "voisins": [
            "N11148",
            "N14115",
            "N13755"
        ],
        "incidence": [
            "T25767",
            "T25246",
            "T25766"
        ],
        "nom": "RENE|1945",
        "geometry": {
            "type": "Point",
            "coordinates": [
                4.89203364,
                45.77851141
            ]
        }
    },
    "N30210": {
        "voisins": [
            "N11148",
            "N13755"
        ],
        "incidence": [
            "T48389",
            "T48388"
        ],
        "nom": "BUERS",
        "geometry": {
            "type": "Point",
            "coordinates": [
                4.89171597,
                45.77837628
            ]
        }
    },
    "N13757": {
        "voisins": [
            "N11148",
            "N13759",
            "N13761",
            "N13752"
        ],
        "incidence": [
            "T25231",
            "T25761",
            "T25762",
            "T42372"
        ],
        "nom": "RENE|OCTAVIE",
        "geometry": {
            "type": "Point",
            "coordinates": [
                4.88914053,
                45.77848036
            ]
        }
    },
    "N30334": {
        "voisins": [
            "N13415",
            "N14426",
            "N14284"
        ],
        "incidence": [
            "T48581",
            "T48580",
            "T25345"
        ],
        "nom": "KIMMERLING|DECORPS",
        "geometry": {
            "type": "Point",
            "coordinates": [
                4.89896739,
                45.754188
            ]
        }
    },
    "N13415": {
        "voisins": [
            "N30334",
            "N14427",
            "N13205"
        ],
        "incidence": [
            "T48581",
            "T367",
            "T25391"
        ],
        "nom": "DECORPS",
        "geometry": {
            "type": "Point",
            "coordinates": [
                4.89921101,
                45.75460641
            ]
        }
    },
    "N14426": {
        "voisins": [
            "N30334",
            "N2689",
            "N14284"
        ],
        "incidence": [
            "T48580",
            "T780",
            "T16351"
        ],
        "nom": "KIMMERLING|DECORPS",
        "geometry": {
            "type": "Point",
            "coordinates": [
                4.89867971,
                45.75352948
            ]
        }
    },
    "N14284": {
        "voisins": [
            "N30334",
            "N14427",
            "N14426"
        ],
        "incidence": [
            "T25345",
            "T16352",
            "T16351"
        ],
        "nom": "KIMMERLING",
        "geometry": {
            "type": "Point",
            "coordinates": [
                4.89883852,
                45.75361701
            ]
        }
    },
    "N13515": {
        "voisins": [
            "N14370"
        ],
        "incidence": [
            "T16257"
        ],
        "nom": "A42",
        "geometry": {
            "type": "Point",
            "coordinates": [
                4.89933744,
                45.78732818
            ]
        }
    },
    "N14370": {
        "voisins": [
            "N13515",
            "N14372",
            "N14371"
        ],
        "incidence": [
            "T16257",
            "T16260",
            "T16258"
        ],
        "nom": "A42",
        "geometry": {
            "type": "Point",
            "coordinates": [
                4.89919071,
                45.78701669
            ]
        }
    },
    "N3643": {
        "voisins": [
            "N13251"
        ],
        "incidence": [
            "T697"
        ],
        "nom": "HANOI",
        "geometry": {
            "type": "Point",
            "coordinates": [
                4.86140969,
                45.77146771
            ]
        }
    },
    "N13250": {
        "voisins": [
            "N13251",
            "N20672",
            "N13252",
            "N30168"
        ],
        "incidence": [
            "T327",
            "T14454",
            "T25606",
            "T32165"
        ],
        "nom": "ROLLAND|HANOI|BELFORT",
        "geometry": {
            "type": "Point",
            "coordinates": [
                4.86301149,
                45.77138965
            ]
        }
    },
    "N3641": {
        "voisins": [
            "N13251"
        ],
        "incidence": [
            "T78"
        ],
        "nom": "THIERS|DUTRIEVOZ",
        "geometry": {
            "type": "Point",
            "coordinates": [
                4.86173376,
                45.77100501
            ]
        }
    },
    "N13735": {
        "voisins": [
            "N13734",
            "N13738",
            "N13736"
        ],
        "incidence": [
            "T25631",
            "T25629",
            "T25630"
        ],
        "nom": "GILLET|DRUT",
        "geometry": {
            "type": "Point",
            "coordinates": [
                4.88800887,
                45.77296844
            ]
        }
    },
    "N13734": {
        "voisins": [
            "N13735",
            "N13732",
            "N13738"
        ],
        "incidence": [
            "T25631",
            "T25628",
            "T25634"
        ],
        "nom": "GILLET|BALAY",
        "geometry": {
            "type": "Point",
            "coordinates": [
                4.88872653,
                45.77295311
            ]
        }
    },
    "N13738": {
        "voisins": [
            "N13735",
            "N13737",
            "N13734"
        ],
        "incidence": [
            "T25629",
            "T25633",
            "T25634"
        ],
        "nom": "DRUT|BALAY",
        "geometry": {
            "type": "Point",
            "coordinates": [
                4.88799353,
                45.77258411
            ]
        }
    },
    "N13736": {
        "voisins": [
            "N13735",
            "N13737",
            "N14215"
        ],
        "incidence": [
            "T25630",
            "T25632",
            "T48401"
        ],
        "nom": "PREVOYANCE|GILLET",
        "geometry": {
            "type": "Point",
            "coordinates": [
                4.88767035,
                45.77297225
            ]
        }
    },
    "N19071": {
        "voisins": [
            "N19070",
            "N19072",
            "N13444"
        ],
        "incidence": [
            "T15102",
            "T23954",
            "T48222"
        ],
        "nom": "POUDRETTE|MUSSET",
        "geometry": {
            "type": "Point",
            "coordinates": [
                4.92111349,
                45.75808839
            ]
        }
    },
    "N19070": {
        "voisins": [
            "N19071",
            "N11417"
        ],
        "incidence": [
            "T15102",
            "T25445"
        ],
        "nom": "POUDRETTE|MUSSET",
        "geometry": {
            "type": "Point",
            "coordinates": [
                4.92122032,
                45.75818856
            ]
        }
    },
    "N19072": {
        "voisins": [
            "N19071",
            "N11419"
        ],
        "incidence": [
            "T23954",
            "T25446"
        ],
        "nom": "POUDRETTE|MUSSET",
        "geometry": {
            "type": "Point",
            "coordinates": [
                4.92121508,
                45.75802529
            ]
        }
    },
    "N13444": {
        "voisins": [
            "N19071",
            "N11180",
            "N14238",
            "N13423"
        ],
        "incidence": [
            "T48222",
            "T385",
            "T44976",
            "T384"
        ],
        "nom": "MUSSET|LEGAY",
        "geometry": {
            "type": "Point",
            "coordinates": [
                4.91665874,
                45.75731308
            ]
        }
    },
    "N20229": {
        "voisins": [
            "N13537",
            "N12991",
            "N20230"
        ],
        "incidence": [
            "T28895",
            "T28894",
            "T28898"
        ],
        "nom": "NORD|KAHN",
        "geometry": {
            "type": "Point",
            "coordinates": [
                4.87603608,
                45.76503135
            ]
        }
    },
    "N13537": {
        "voisins": [
            "N20229",
            "N20254",
            "N19100"
        ],
        "incidence": [
            "T28895",
            "T28947",
            "T18790"
        ],
        "nom": "KAHN|1789",
        "geometry": {
            "type": "Point",
            "coordinates": [
                4.87611542,
                45.76415251
            ]
        }
    },
    "N12991": {
        "voisins": [
            "N20229",
            "N20230",
            "N12992",
            "N12990"
        ],
        "incidence": [
            "T28894",
            "T28896",
            "T18792",
            "T18868"
        ],
        "nom": "KAHN|BECKER",
        "geometry": {
            "type": "Point",
            "coordinates": [
                4.8760077,
                45.76529237
            ]
        }
    },
    "N20230": {
        "voisins": [
            "N20229",
            "N12991",
            "N13036"
        ],
        "incidence": [
            "T28898",
            "T28896",
            "T28897"
        ],
        "nom": "NORD|BECKER",
        "geometry": {
            "type": "Point",
            "coordinates": [
                4.87678159,
                45.76529608
            ]
        }
    },
    "N30323": {
        "voisins": [
            "N12202",
            "N22821",
            "N11569"
        ],
        "incidence": [
            "T48567",
            "T34516",
            "T48568"
        ],
        "nom": "GENAS|BONNEVAY",
        "geometry": {
            "type": "Point",
            "coordinates": [
                4.90671782,
                45.75132719
            ]
        }
    },
    "N12202": {
        "voisins": [
            "N30323",
            "N22822",
            "N12201"
        ],
        "incidence": [
            "T48567",
            "T44463",
            "T44460"
        ],
        "nom": "GENAS|BONNEVAY",
        "geometry": {
            "type": "Point",
            "coordinates": [
                4.90721753,
                45.75114969
            ]
        }
    },
    "N22821": {
        "voisins": [
            "N30323",
            "N22822",
            "N13186"
        ],
        "incidence": [
            "T34516",
            "T34515",
            "T408"
        ],
        "nom": "ROSES|BONNEVAY",
        "geometry": {
            "type": "Point",
            "coordinates": [
                4.90711798,
                45.75147943
            ]
        }
    },
    "N11569": {
        "voisins": [
            "N30323",
            "N12873"
        ],
        "incidence": [
            "T48568",
            "T25353"
        ],
        "nom": "GENAS",
        "geometry": {
            "type": "Point",
            "coordinates": [
                4.90644761,
                45.75132065
            ]
        }
    },
    "N20156": {
        "voisins": [
            "N14395",
            "N30100",
            "N21390",
            "N20027"
        ],
        "incidence": [
            "T28700",
            "T31314",
            "T31320",
            "T31315",
            "T48207"
        ],
        "nom": "BONNEVAY|BOHR",
        "geometry": {
            "type": "Point",
            "coordinates": [
                4.8672749,
                45.78479255
            ]
        }
    },
    "N14395": {
        "voisins": [
            "N20156",
            "N14394",
            "N20023"
        ],
        "incidence": [
            "T28700",
            "T16288",
            "T28404"
        ],
        "nom": "BONNEVAY",
        "geometry": {
            "type": "Point",
            "coordinates": [
                4.86507038,
                45.7846351
            ]
        }
    },
    "N30100": {
        "voisins": [
            "N20156",
            "N21386",
            "N34659"
        ],
        "incidence": [
            "T31314",
            "T31310",
            "T31313"
        ],
        "nom": "BOHR",
        "geometry": {
            "type": "Point",
            "coordinates": [
                4.8673158,
                45.78460413
            ]
        }
    },
    "N21390": {
        "voisins": [
            "N20156",
            "N21410",
            "N21391",
            "N21389"
        ],
        "incidence": [
            "T31320",
            "T31315",
            "T31366",
            "T31323",
            "T48257"
        ],
        "nom": "BONNEVAY|BOHR",
        "geometry": {
            "type": "Point",
            "coordinates": [
                4.87896374,
                45.78712603
            ]
        }
    },
    "N20027": {
        "voisins": [
            "N20156",
            "N20034",
            "N20023"
        ],
        "incidence": [
            "T48207",
            "T34345",
            "T28438"
        ],
        "nom": "BONNEVAY",
        "geometry": {
            "type": "Point",
            "coordinates": [
                4.86378981,
                45.78479036
            ]
        }
    },
    "N13595": {
        "voisins": [
            "N13594",
            "N30443",
            "N13593"
        ],
        "incidence": [
            "T25481",
            "T48778",
            "T337"
        ],
        "nom": "FRANCIA|DECOMBEROUSSE",
        "geometry": {
            "type": "Point",
            "coordinates": [
                4.91631061,
                45.76158244
            ]
        }
    },
    "N13594": {
        "voisins": [
            "N13595",
            "N30920",
            "N30923"
        ],
        "incidence": [
            "T25481",
            "T49520",
            "T49529"
        ],
        "nom": "SOIE|FRANCIA",
        "geometry": {
            "type": "Point",
            "coordinates": [
                4.91573739,
                45.762515
            ]
        }
    },
    "N30443": {
        "voisins": [
            "N13595",
            "N30472",
            "N30471"
        ],
        "incidence": [
            "T48778",
            "T48821",
            "T48818"
        ],
        "nom": "DJEBAR|DECOMBEROUSSE",
        "geometry": {
            "type": "Point",
            "coordinates": [
                4.91738438,
                45.76139695
            ]
        }
    },
    "N13593": {
        "voisins": [
            "N13595",
            "N30911",
            "N13591"
        ],
        "incidence": [
            "T337",
            "T49504",
            "T25505"
        ],
        "nom": "SOIE|DECOMBEROUSSE|BRANDT",
        "geometry": {
            "type": "Point",
            "coordinates": [
                4.91444582,
                45.76297173
            ]
        }
    },
    "N13870": {
        "voisins": [
            "N13374",
            "N13492",
            "N30135",
            "N30132"
        ],
        "incidence": [
            "T25203",
            "T48294",
            "T48296",
            "T48293"
        ],
        "nom": "YVONNE|SALENGRO",
        "geometry": {
            "type": "Point",
            "coordinates": [
                4.87646567,
                45.77680934
            ]
        }
    },
    "N13374": {
        "voisins": [
            "N13870",
            "N13376",
            "N13375",
            "N13378"
        ],
        "incidence": [
            "T25203",
            "T25681",
            "T25680",
            "T25682"
        ],
        "nom": "YVONNE|PERRONCEL",
        "geometry": {
            "type": "Point",
            "coordinates": [
                4.87671939,
                45.77490592
            ]
        }
    },
    "N13492": {
        "voisins": [
            "N13870",
            "N11203",
            "N30135",
            "N30137",
            "N13494",
            "N13491"
        ],
        "incidence": [
            "T48294",
            "T18368",
            "T48297",
            "T48299",
            "T25197",
            "T25744"
        ],
        "nom": "SALENGRO|DOUA|COLIN",
        "geometry": {
            "type": "Point",
            "coordinates": [
                4.87410188,
                45.77656596
            ]
        }
    },
    "N30135": {
        "voisins": [
            "N13870",
            "N13492",
            "N13376"
        ],
        "incidence": [
            "T48296",
            "T48297",
            "T25202"
        ],
        "nom": "VERZIER|SALENGRO",
        "geometry": {
            "type": "Point",
            "coordinates": [
                4.87602757,
                45.77669434
            ]
        }
    },
    "N30132": {
        "voisins": [
            "N13870",
            "N13472",
            "N13482"
        ],
        "incidence": [
            "T48293",
            "T25211",
            "T48292",
            "T25217"
        ],
        "nom": "SALENGRO|PEROU|COURTELINE",
        "geometry": {
            "type": "Point",
            "coordinates": [
                4.87664701,
                45.77690041
            ]
        }
    },
    "N13039": {
        "voisins": [
            "N13045",
            "N13043",
            "N19102"
        ],
        "incidence": [
            "T14237",
            "T14236",
            "T14748"
        ],
        "nom": "SANGNIER|PONCET",
        "geometry": {
            "type": "Point",
            "coordinates": [
                4.87398071,
                45.76277797
            ]
        }
    },
    "N13045": {
        "voisins": [
            "N13039",
            "N20619",
            "N20618",
            "N20234"
        ],
        "incidence": [
            "T14237",
            "T29581",
            "T29579",
            "T28907"
        ],
        "nom": "SANGNIER|LAFONTAINE|1797",
        "geometry": {
            "type": "Point",
            "coordinates": [
                4.87402324,
                45.76196625
            ]
        }
    },
    "N13043": {
        "voisins": [
            "N13039",
            "N13038",
            "N13044"
        ],
        "incidence": [
            "T14236",
            "T14754",
            "T18881"
        ],
        "nom": "PONCET|PASCAL",
        "geometry": {
            "type": "Point",
            "coordinates": [
                4.87554177,
                45.7626816
            ]
        }
    },
    "N19102": {
        "voisins": [
            "N13039",
            "N19101",
            "N19104"
        ],
        "incidence": [
            "T14748",
            "T23994",
            "T48470"
        ],
        "nom": "THOMAS|SANGNIER",
        "geometry": {
            "type": "Point",
            "coordinates": [
                4.87399108,
                45.76367918
            ]
        }
    },
    "N25619": {
        "voisins": [
            "N13808",
            "N12809",
            "N30112"
        ],
        "incidence": [
            "T40488",
            "T40487",
            "T48262"
        ],
        "nom": "STALINGRAD|BONNEVAY",
        "geometry": {
            "type": "Point",
            "coordinates": [
                4.85997284,
                45.78308911
            ]
        }
    },
    "N13808": {
        "voisins": [
            "N25619",
            "N22841",
            "N13434",
            "N22746"
        ],
        "incidence": [
            "T40488",
            "T34856",
            "T46571",
            "T46572",
            "T34356"
        ],
        "nom": "STALINGRAD|BONNEVAY",
        "geometry": {
            "type": "Point",
            "coordinates": [
                4.85983915,
                45.78194331
            ]
        }
    },
    "N12809": {
        "voisins": [
            "N25619",
            "N31717",
            "N12870",
            "N21239"
        ],
        "incidence": [
            "T40487",
            "T50734",
            "T25298",
            "T31020"
        ],
        "nom": "STALINGRAD|POINCARE|BONNEVAY",
        "geometry": {
            "type": "Point",
            "coordinates": [
                4.86026843,
                45.78585482
            ]
        }
    },
    "N30112": {
        "voisins": [
            "N25619",
            "N30113"
        ],
        "incidence": [
            "T48262",
            "T48264"
        ],
        "nom": "BONNEVAY",
        "geometry": {
            "type": "Point",
            "coordinates": [
                4.86043916,
                45.78297753
            ]
        }
    },
    "N13575": {
        "voisins": [
            "N30196",
            "N14416",
            "N31729"
        ],
        "incidence": [
            "T40499",
            "T16326",
            "T50764"
        ],
        "nom": "BONNEVAY",
        "geometry": {
            "type": "Point",
            "coordinates": [
                4.90771054,
                45.76529761
            ]
        }
    },
    "N30196": {
        "voisins": [
            "N13575",
            "N14412",
            "N14413"
        ],
        "incidence": [
            "T40499",
            "T48370",
            "T48371"
        ],
        "nom": "BONNEVAY",
        "geometry": {
            "type": "Point",
            "coordinates": [
                4.9052748,
                45.76825158
            ]
        }
    },
    "N14416": {
        "voisins": [
            "N13575",
            "N22662",
            "N30191"
        ],
        "incidence": [
            "T16326",
            "T48206",
            "T48363"
        ],
        "nom": "BONNEVAY",
        "geometry": {
            "type": "Point",
            "coordinates": [
                4.90538319,
                45.76753612
            ]
        }
    },
    "N31729": {
        "voisins": [
            "N13575",
            "N30203",
            "N30227"
        ],
        "incidence": [
            "T50764",
            "T50765",
            "T50766"
        ],
        "nom": "BONNEVAY",
        "geometry": {
            "type": "Point",
            "coordinates": [
                4.90797973,
                45.76497178
            ]
        }
    },
    "N19489": {
        "voisins": [
            "N19491",
            "N19485",
            "N30122"
        ],
        "incidence": [
            "T27169",
            "T27163",
            "T48274"
        ],
        "nom": "LATARJET|BERGER",
        "geometry": {
            "type": "Point",
            "coordinates": [
                4.87228467,
                45.7795548
            ]
        }
    },
    "N19491": {
        "voisins": [
            "N19489",
            "N19490",
            "N30117"
        ],
        "incidence": [
            "T27169",
            "T27170",
            "T48267"
        ],
        "nom": "LATARJET|LAMARCK",
        "geometry": {
            "type": "Point",
            "coordinates": [
                4.86999755,
                45.77907669
            ]
        }
    },
    "N19485": {
        "voisins": [
            "N19489",
            "N13445",
            "N13441"
        ],
        "incidence": [
            "T27163",
            "T27155",
            "T39251",
            "T27154"
        ],
        "nom": "BERGER|1918",
        "geometry": {
            "type": "Point",
            "coordinates": [
                4.87253638,
                45.77904502
            ]
        }
    },
    "N30122": {
        "voisins": [
            "N19489",
            "N30120",
            "N19488"
        ],
        "incidence": [
            "T48274",
            "T48271",
            "T48273"
        ],
        "nom": "DUBOIS|BERGER",
        "geometry": {
            "type": "Point",
            "coordinates": [
                4.87173686,
                45.78114822
            ]
        }
    },
    "N14411": {
        "voisins": [
            "N3918",
            "N11871",
            "N14324"
        ],
        "incidence": [
            "T13816",
            "T23627",
            "T16323"
        ],
        "nom": "BONNEVAY",
        "geometry": {
            "type": "Point",
            "coordinates": [
                4.903711,
                45.76879086
            ]
        }
    },
    "N3918": {
        "voisins": [
            "N14411",
            "N13571",
            "N11871"
        ],
        "incidence": [
            "T13816",
            "T16318",
            "T16320"
        ],
        "nom": "BONNEVAY",
        "geometry": {
            "type": "Point",
            "coordinates": [
                4.90471636,
                45.76755053
            ]
        }
    },
    "N11871": {
        "voisins": [
            "N14411",
            "N3918",
            "N22666"
        ],
        "incidence": [
            "T23627",
            "T16320",
            "T34170"
        ],
        "nom": "BONNEVAY|1789",
        "geometry": {
            "type": "Point",
            "coordinates": [
                4.90353741,
                45.76782776
            ]
        }
    },
    "N14324": {
        "voisins": [
            "N14411",
            "N11244",
            "N14325"
        ],
        "incidence": [
            "T16323",
            "T16241",
            "T16186"
        ],
        "nom": "LUIZET|BONNEVAY",
        "geometry": {
            "type": "Point",
            "coordinates": [
                4.89356974,
                45.78107472
            ]
        }
    },
    "N2750": {
        "voisins": [
            "N11253",
            "N13664",
            "N2749"
        ],
        "incidence": [
            "T39793",
            "T881",
            "T3544"
        ],
        "nom": "PERRIN|GENAS|BONNAND",
        "geometry": {
            "type": "Point",
            "coordinates": [
                4.88565385,
                45.75425403
            ]
        }
    },
    "N11253": {
        "voisins": [
            "N2750",
            "N2755",
            "N13217"
        ],
        "incidence": [
            "T39793",
            "T883",
            "T882"
        ],
        "nom": "VITTON|GENAS|BALZAC",
        "geometry": {
            "type": "Point",
            "coordinates": [
                4.88439378,
                45.75425565
            ]
        }
    },
    "N13664": {
        "voisins": [
            "N2750",
            "N13217",
            "N13661"
        ],
        "incidence": [
            "T881",
            "T39792",
            "T39130"
        ],
        "nom": "SAND|PERRIN",
        "geometry": {
            "type": "Point",
            "coordinates": [
                4.88561145,
                45.75465777
            ]
        }
    },
    "N2749": {
        "voisins": [
            "N2750",
            "N2743",
            "N13661"
        ],
        "incidence": [
            "T3544",
            "T3543",
            "T840"
        ],
        "nom": "GENAS|FRATERNITE",
        "geometry": {
            "type": "Point",
            "coordinates": [
                4.88682602,
                45.75426853
            ]
        }
    },
    "N20237": {
        "voisins": [
            "N13410",
            "N32301",
            "N20236"
        ],
        "incidence": [
            "T28911",
            "T28912",
            "T28913"
        ],
        "nom": "COUTURIER|BERNAIX",
        "geometry": {
            "type": "Point",
            "coordinates": [
                4.89677803,
                45.76064098
            ]
        }
    },
    "N13410": {
        "voisins": [
            "N20237",
            "N13411",
            "N13180"
        ],
        "incidence": [
            "T28911",
            "T387",
            "T25469"
        ],
        "nom": "COTE|BERNAIX",
        "geometry": {
            "type": "Point",
            "coordinates": [
                4.89672401,
                45.76106382
            ]
        }
    },
    "N32301": {
        "voisins": [
            "N20237",
            "N11318",
            "N20236",
            "N13179"
        ],
        "incidence": [
            "T28912",
            "T457",
            "T28910",
            "T51750",
            "T54464"
        ],
        "nom": "BLUM|BERTHELOT|BERNAIX",
        "geometry": {
            "type": "Point",
            "coordinates": [
                4.89687518,
                45.75997792
            ]
        }
    },
    "N20236": {
        "voisins": [
            "N20237",
            "N13150",
            "N32301"
        ],
        "incidence": [
            "T28913",
            "T28909",
            "T28910"
        ],
        "nom": "COUTURIER|BLUM",
        "geometry": {
            "type": "Point",
            "coordinates": [
                4.89579168,
                45.75989707
            ]
        }
    },
    "N13934": {
        "voisins": [
            "N13935",
            "N13473",
            "N13482"
        ],
        "incidence": [
            "T25238",
            "T25779",
            "T39242",
            "T25206",
            "T39241"
        ],
        "nom": "SALENGRO|ALLIES",
        "geometry": {
            "type": "Point",
            "coordinates": [
                4.88111882,
                45.77925387
            ]
        }
    },
    "N13473": {
        "voisins": [
            "N13934",
            "N13936",
            "N13937",
            "N13941",
            "N11215"
        ],
        "incidence": [
            "T25779",
            "T39241",
            "T25239",
            "T25780",
            "T40514",
            "T34565"
        ],
        "nom": "SALENGRO|HENRI|COURTELINE",
        "geometry": {
            "type": "Point",
            "coordinates": [
                4.88184696,
                45.77967196
            ]
        }
    },
    "N13482": {
        "voisins": [
            "N13934",
            "N13933",
            "N30132",
            "N13462"
        ],
        "incidence": [
            "T39242",
            "T25206",
            "T15689",
            "T48292",
            "T25217",
            "T14688"
        ],
        "nom": "VAILLANT|SALENGRO|ANTONINS",
        "geometry": {
            "type": "Point",
            "coordinates": [
                4.87944902,
                45.77835965
            ]
        }
    },
    "N14258": {
        "voisins": [
            "N20153",
            "N14257",
            "N30187"
        ],
        "incidence": [
            "T28696",
            "T25279",
            "T48358"
        ],
        "nom": "DIGUE|COQUELICOTS",
        "geometry": {
            "type": "Point",
            "coordinates": [
                4.90549694,
                45.77658797
            ]
        }
    },
    "N20153": {
        "voisins": [
            "N14258",
            "N14260",
            "N14259"
        ],
        "incidence": [
            "T28696",
            "T28694",
            "T28695"
        ],
        "nom": "PIAT|DIGUE",
        "geometry": {
            "type": "Point",
            "coordinates": [
                4.90303385,
                45.77318843
            ]
        }
    },
    "N14257": {
        "voisins": [
            "N14258",
            "N14255",
            "N14266",
            "N14256"
        ],
        "incidence": [
            "T25279",
            "T25773",
            "T25283",
            "T25772"
        ],
        "nom": "JARDINS|COQUELICOTS",
        "geometry": {
            "type": "Point",
            "coordinates": [
                4.9035462,
                45.77658317
            ]
        }
    },
    "N30187": {
        "voisins": [
            "N14258",
            "N20154"
        ],
        "incidence": [
            "T48358",
            "T48357"
        ],
        "nom": "DIGUE",
        "geometry": {
            "type": "Point",
            "coordinates": [
                4.90572174,
                45.77668077
            ]
        }
    },
    "N14106": {
        "voisins": [
            "N14102",
            "N19124",
            "N14356",
            "N32866"
        ],
        "incidence": [
            "T52085",
            "T24023",
            "T12462",
            "T52682"
        ],
        "nom": "SALENGRO|1945",
        "geometry": {
            "type": "Point",
            "coordinates": [
                4.89057005,
                45.78255087
            ]
        }
    },
    "N14102": {
        "voisins": [
            "N14106",
            "N32528",
            "N32530",
            "N32866"
        ],
        "incidence": [
            "T52085",
            "T52094",
            "T52096",
            "T52681"
        ],
        "nom": "LUIZET|1945",
        "geometry": {
            "type": "Point",
            "coordinates": [
                4.89099931,
                45.78205799
            ]
        }
    },
    "N19124": {
        "voisins": [
            "N14106",
            "N31600",
            "N14315"
        ],
        "incidence": [
            "T24023",
            "T50489",
            "T24022"
        ],
        "nom": "SALENGRO|FEYSSINE",
        "geometry": {
            "type": "Point",
            "coordinates": [
                4.89032235,
                45.78272689
            ]
        }
    },
    "N14356": {
        "voisins": [
            "N14106",
            "N14375",
            "N30127"
        ],
        "incidence": [
            "T12462",
            "T24012",
            "T48285"
        ],
        "nom": "LUIZET|1945",
        "geometry": {
            "type": "Point",
            "coordinates": [
                4.89080197,
                45.78266402
            ]
        }
    },
    "N32866": {
        "voisins": [
            "N14106",
            "N32528",
            "N14102"
        ],
        "incidence": [
            "T52682",
            "T52095",
            "T52681"
        ],
        "nom": "1945",
        "geometry": {
            "type": "Point",
            "coordinates": [
                4.89083298,
                45.78210701
            ]
        }
    },
    "N10473": {
        "voisins": [
            "N13932",
            "N13127",
            "N14217",
            "N14220"
        ],
        "incidence": [
            "T403",
            "T25626",
            "T5088",
            "T25625"
        ],
        "nom": "PRESSENSE|HERMINIER|BIENVENUS",
        "geometry": {
            "type": "Point",
            "coordinates": [
                4.88522665,
                45.77125302
            ]
        }
    },
    "N13932": {
        "voisins": [
            "N10473",
            "N10477",
            "N19094"
        ],
        "incidence": [
            "T403",
            "T401",
            "T402"
        ],
        "nom": "PEYHORGUE|HERMINIER",
        "geometry": {
            "type": "Point",
            "coordinates": [
                4.884969,
                45.77026329
            ]
        }
    },
    "N13127": {
        "voisins": [
            "N10473",
            "N13929",
            "N13928"
        ],
        "incidence": [
            "T25626",
            "T410",
            "T411"
        ],
        "nom": "PRESSENSE|FONTANIERES",
        "geometry": {
            "type": "Point",
            "coordinates": [
                4.88431049,
                45.77132706
            ]
        }
    },
    "N14217": {
        "voisins": [
            "N10473",
            "N14216",
            "N13722"
        ],
        "incidence": [
            "T5088",
            "T25624",
            "T6438"
        ],
        "nom": "COMBY|BIENVENUS",
        "geometry": {
            "type": "Point",
            "coordinates": [
                4.88490241,
                45.77311579
            ]
        }
    },
    "N14220": {
        "voisins": [
            "N10473",
            "N14219",
            "N13749"
        ],
        "incidence": [
            "T25625",
            "T359",
            "T354"
        ],
        "nom": "PRESSENSE|BIENVENUS",
        "geometry": {
            "type": "Point",
            "coordinates": [
                4.88570938,
                45.77124691
            ]
        }
    },
    "N14219": {
        "voisins": [
            "N14220"
        ],
        "incidence": [
            "T359"
        ],
        "nom": "BIENVENUS",
        "geometry": {
            "type": "Point",
            "coordinates": [
                4.88544143,
                45.77255703
            ]
        }
    },
    "N13070": {
        "voisins": [
            "N14229",
            "N32893",
            "N13071",
            "N2763"
        ],
        "incidence": [
            "T25373",
            "T52732",
            "T25372",
            "T77"
        ],
        "nom": "TERRACHER|JAURES|GALILEE",
        "geometry": {
            "type": "Point",
            "coordinates": [
                4.87904602,
                45.75659104
            ]
        }
    },
    "N14229": {
        "voisins": [
            "N13070",
            "N13069"
        ],
        "incidence": [
            "T25373",
            "T25371"
        ],
        "nom": "NEUVES|JAURES",
        "geometry": {
            "type": "Point",
            "coordinates": [
                4.87809537,
                45.75631747
            ]
        }
    },
    "N32893": {
        "voisins": [
            "N13070",
            "N27149",
            "N27147"
        ],
        "incidence": [
            "T52732",
            "T52734",
            "T52733"
        ],
        "nom": "TERRACHER|SANS",
        "geometry": {
            "type": "Point",
            "coordinates": [
                4.87865742,
                45.7571697
            ]
        }
    },
    "N13071": {
        "voisins": [
            "N13070",
            "N11411",
            "N2758"
        ],
        "incidence": [
            "T25372",
            "T25370",
            "T12447"
        ],
        "nom": "JAURES|HUGO",
        "geometry": {
            "type": "Point",
            "coordinates": [
                4.88026065,
                45.75691794
            ]
        }
    },
    "N2763": {
        "voisins": [
            "N13070",
            "N12888",
            "N12887"
        ],
        "incidence": [
            "T77",
            "T88",
            "T11939"
        ],
        "nom": "GENAS|GALILEE",
        "geometry": {
            "type": "Point",
            "coordinates": [
                4.87980165,
                45.75477183
            ]
        }
    },
    "N13762": {
        "voisins": [
            "N13774",
            "N13761",
            "N13777"
        ],
        "incidence": [
            "T25756",
            "T25258",
            "T25751"
        ],
        "nom": "RENE|GAILLARD",
        "geometry": {
            "type": "Point",
            "coordinates": [
                4.88553449,
                45.77727264
            ]
        }
    },
    "N13774": {
        "voisins": [
            "N13762",
            "N13711",
            "N14095"
        ],
        "incidence": [
            "T25756",
            "T25763",
            "T25260"
        ],
        "nom": "PERRONCEL|GAILLARD",
        "geometry": {
            "type": "Point",
            "coordinates": [
                4.88674609,
                45.77673945
            ]
        }
    },
    "N13761": {
        "voisins": [
            "N13762",
            "N13757",
            "N13759"
        ],
        "incidence": [
            "T25258",
            "T25762",
            "T25760"
        ],
        "nom": "RENE|LLACER",
        "geometry": {
            "type": "Point",
            "coordinates": [
                4.88815503,
                45.77814777
            ]
        }
    },
    "N13777": {
        "voisins": [
            "N13762",
            "N13778"
        ],
        "incidence": [
            "T25751",
            "T25234"
        ],
        "nom": "GAILLARD|CHANTEUR",
        "geometry": {
            "type": "Point",
            "coordinates": [
                4.88505468,
                45.77750317
            ]
        }
    },
    "N14273": {
        "voisins": [
            "N30130",
            "N14272",
            "N27640"
        ],
        "incidence": [
            "T34976",
            "T25293",
            "T25770"
        ],
        "nom": "VERDUN|ROULET",
        "geometry": {
            "type": "Point",
            "coordinates": [
                4.89900482,
                45.77840781
            ]
        }
    },
    "N30130": {
        "voisins": [
            "N14273"
        ],
        "incidence": [
            "T34976"
        ],
        "nom": "VERDUN",
        "geometry": {
            "type": "Point",
            "coordinates": [
                4.89931583,
                45.77716219
            ]
        }
    },
    "N27640": {
        "voisins": [
            "N14273",
            "N27641",
            "N14274"
        ],
        "incidence": [
            "T25770",
            "T43953",
            "T43952"
        ],
        "nom": "ROULET|CANAL",
        "geometry": {
            "type": "Point",
            "coordinates": [
                4.8984709,
                45.77822312
            ]
        }
    },
    "N30265": {
        "voisins": [
            "N13026"
        ],
        "incidence": [
            "T14223"
        ],
        "nom": "PRUDHOMME",
        "geometry": {
            "type": "Point",
            "coordinates": [
                4.87870768,
                45.76618017
            ]
        }
    },
    "N13026": {
        "voisins": [
            "N30265",
            "N13023",
            "N13036"
        ],
        "incidence": [
            "T14223",
            "T14222",
            "T14232"
        ],
        "nom": "RACINE|PRUDHOMME",
        "geometry": {
            "type": "Point",
            "coordinates": [
                4.87808418,
                45.76616724
            ]
        }
    },
    "N14255": {
        "voisins": [
            "N14257",
            "N22956",
            "N14272",
            "N14256"
        ],
        "incidence": [
            "T25773",
            "T34863",
            "T25277",
            "T25771"
        ],
        "nom": "JEAN|COQUELICOTS|BLE",
        "geometry": {
            "type": "Point",
            "coordinates": [
                4.90255522,
                45.77658867
            ]
        }
    },
    "N14256": {
        "voisins": [
            "N14257",
            "N30184",
            "N14255"
        ],
        "incidence": [
            "T25772",
            "T48353",
            "T25771"
        ],
        "nom": "JARDINS|BLE",
        "geometry": {
            "type": "Point",
            "coordinates": [
                4.90257065,
                45.77575606
            ]
        }
    },
    "N19486": {
        "voisins": [
            "N19506",
            "N21386",
            "N19510"
        ],
        "incidence": [
            "T27203",
            "T31308",
            "T27212"
        ],
        "nom": "BOHR|BERGER",
        "geometry": {
            "type": "Point",
            "coordinates": [
                4.87018059,
                45.7848559
            ]
        }
    },
    "N19506": {
        "voisins": [
            "N19486",
            "N19505",
            "N19511"
        ],
        "incidence": [
            "T27203",
            "T27204",
            "T48260",
            "T27215"
        ],
        "nom": "GRIGNARD|BERGER",
        "geometry": {
            "type": "Point",
            "coordinates": [
                4.8705366,
                45.78404921
            ]
        }
    },
    "N21386": {
        "voisins": [
            "N19486",
            "N30100",
            "N19501"
        ],
        "incidence": [
            "T31308",
            "T31310",
            "T31309"
        ],
        "nom": "BOHR",
        "geometry": {
            "type": "Point",
            "coordinates": [
                4.86882767,
                45.78467184
            ]
        }
    },
    "N19510": {
        "voisins": [
            "N19486",
            "N19512",
            "N21389"
        ],
        "incidence": [
            "T27212",
            "T27217",
            "T31318"
        ],
        "nom": "SPORTS|BOHR",
        "geometry": {
            "type": "Point",
            "coordinates": [
                4.87659466,
                45.78616995
            ]
        }
    },
    "N11266": {
        "voisins": [
            "N14300"
        ],
        "incidence": [
            "T25821"
        ],
        "nom": "MOINEAUX",
        "geometry": {
            "type": "Point",
            "coordinates": [
                4.89868003,
                45.78234107
            ]
        }
    },
    "N14300": {
        "voisins": [
            "N11266",
            "N11255",
            "N14301"
        ],
        "incidence": [
            "T25821",
            "T25822",
            "T25823"
        ],
        "nom": "VERDUN|MOINEAUX",
        "geometry": {
            "type": "Point",
            "coordinates": [
                4.89765919,
                45.78230401
            ]
        }
    },
    "N12980": {
        "voisins": [
            "N11412",
            "N12981",
            "N12979"
        ],
        "incidence": [
            "T14162",
            "T14155",
            "T19750"
        ],
        "nom": "FRANCE|ADAM",
        "geometry": {
            "type": "Point",
            "coordinates": [
                4.87205212,
                45.76714678
            ]
        }
    },
    "N11412": {
        "voisins": [
            "N12980",
            "N12983",
            "N12984"
        ],
        "incidence": [
            "T14162",
            "T14160",
            "T14161"
        ],
        "nom": "DEDIEU|ADAM",
        "geometry": {
            "type": "Point",
            "coordinates": [
                4.87174253,
                45.76968798
            ]
        }
    },
    "N12981": {
        "voisins": [
            "N12980",
            "N12987",
            "N12985"
        ],
        "incidence": [
            "T14155",
            "T14166",
            "T22130"
        ],
        "nom": "MANSARD|FRANCE",
        "geometry": {
            "type": "Point",
            "coordinates": [
                4.87289721,
                45.76724007
            ]
        }
    },
    "N12979": {
        "voisins": [
            "N12980",
            "N12977",
            "N12971",
            "N12983"
        ],
        "incidence": [
            "T19750",
            "T14153",
            "T14154",
            "T14159"
        ],
        "nom": "MAGENTA|FRANCE",
        "geometry": {
            "type": "Point",
            "coordinates": [
                4.87135666,
                45.76707434
            ]
        }
    },
    "N13496": {
        "voisins": [
            "N13497",
            "N13180",
            "N13110"
        ],
        "incidence": [
            "T15277",
            "T19442",
            "T19420"
        ],
        "nom": "PROGRES|FRAPPAZ",
        "geometry": {
            "type": "Point",
            "coordinates": [
                4.89450236,
                45.76180781
            ]
        }
    },
    "N13497": {
        "voisins": [
            "N13496",
            "N13111",
            "N32292"
        ],
        "incidence": [
            "T15277",
            "T25471",
            "T34533"
        ],
        "nom": "FRAPPAZ|BAISSE",
        "geometry": {
            "type": "Point",
            "coordinates": [
                4.89395001,
                45.76161288
            ]
        }
    },
    "N13180": {
        "voisins": [
            "N13496",
            "N13412",
            "N13410",
            "N32292"
        ],
        "incidence": [
            "T19442",
            "T19759",
            "T25469",
            "T19582"
        ],
        "nom": "REGUILLON|FRAPPAZ|BERNAIX",
        "geometry": {
            "type": "Point",
            "coordinates": [
                4.89653966,
                45.76165462
            ]
        }
    },
    "N13110": {
        "voisins": [
            "N13496",
            "N13111",
            "N13104",
            "N13112"
        ],
        "incidence": [
            "T19420",
            "T28986",
            "T25468",
            "T432",
            "T25491"
        ],
        "nom": "SAUVY|PROGRES|MARTIN",
        "geometry": {
            "type": "Point",
            "coordinates": [
                4.89434363,
                45.76267647
            ]
        }
    },
    "N13737": {
        "voisins": [
            "N13749",
            "N13736",
            "N13738"
        ],
        "incidence": [
            "T375",
            "T25632",
            "T25633"
        ],
        "nom": "PREVOYANCE|BALAY",
        "geometry": {
            "type": "Point",
            "coordinates": [
                4.88765075,
                45.77259087
            ]
        }
    },
    "N13749": {
        "voisins": [
            "N13737",
            "N14220",
            "N13748",
            "N20248"
        ],
        "incidence": [
            "T375",
            "T354",
            "T23874",
            "T28935"
        ],
        "nom": "PREVOYANCE|PRESSENSE|BERNOUX",
        "geometry": {
            "type": "Point",
            "coordinates": [
                4.88755279,
                45.7710772
            ]
        }
    },
    "N13283": {
        "voisins": [
            "N19140",
            "N30150",
            "N30148",
            "N13282"
        ],
        "incidence": [
            "T25670",
            "T48322",
            "T14482",
            "T14481"
        ],
        "nom": "MOZART|LAKANAL",
        "geometry": {
            "type": "Point",
            "coordinates": [
                4.86625358,
                45.77490982
            ]
        }
    },
    "N19140": {
        "voisins": [
            "N13283",
            "N13809",
            "N19142"
        ],
        "incidence": [
            "T25670",
            "T34742",
            "T15047"
        ],
        "nom": "MOZART|CHOREL|ALLENDE",
        "geometry": {
            "type": "Point",
            "coordinates": [
                4.86510265,
                45.7744703
            ]
        }
    },
    "N30150": {
        "voisins": [
            "N13283",
            "N13952"
        ],
        "incidence": [
            "T48322",
            "T48323"
        ],
        "nom": "LAKANAL",
        "geometry": {
            "type": "Point",
            "coordinates": [
                4.86618699,
                45.77545255
            ]
        }
    },
    "N30148": {
        "voisins": [
            "N13283",
            "N13284",
            "N13812"
        ],
        "incidence": [
            "T14482",
            "T48319",
            "T48320"
        ],
        "nom": "MOZART|CONDORCET",
        "geometry": {
            "type": "Point",
            "coordinates": [
                4.86751106,
                45.77543883
            ]
        }
    },
    "N13282": {
        "voisins": [
            "N13283",
            "N27625",
            "N19142"
        ],
        "incidence": [
            "T14481",
            "T15057",
            "T25171"
        ],
        "nom": "PIATON|LAKANAL",
        "geometry": {
            "type": "Point",
            "coordinates": [
                4.86673188,
                45.77416809
            ]
        }
    },
    "N31765": {
        "voisins": [
            "N31764"
        ],
        "incidence": [
            "T50816"
        ],
        "nom": "WIESEL",
        "geometry": {
            "type": "Point",
            "coordinates": [
                4.89060079,
                45.7813678
            ]
        }
    },
    "N31764": {
        "voisins": [
            "N31765",
            "N31601",
            "N31763"
        ],
        "incidence": [
            "T50816",
            "T50815",
            "T50814"
        ],
        "nom": "WIESEL|GIROUD",
        "geometry": {
            "type": "Point",
            "coordinates": [
                4.88932358,
                45.7810947
            ]
        }
    },
    "N30152": {
        "voisins": [
            "N13213",
            "N13788"
        ],
        "incidence": [
            "T48327",
            "T48326"
        ],
        "nom": "KEATON",
        "geometry": {
            "type": "Point",
            "coordinates": [
                4.86210019,
                45.77565503
            ]
        }
    },
    "N13213": {
        "voisins": [
            "N30152",
            "N11207"
        ],
        "incidence": [
            "T48327",
            "T48461"
        ],
        "nom": "KEATON|DUTRIEVOZ",
        "geometry": {
            "type": "Point",
            "coordinates": [
                4.86158701,
                45.77433895
            ]
        }
    },
    "N13788": {
        "voisins": [
            "N30152",
            "N13800",
            "N13805"
        ],
        "incidence": [
            "T48326",
            "T22011",
            "T34173"
        ],
        "nom": "ROSSELLINI|ORANGE|KEATON",
        "geometry": {
            "type": "Point",
            "coordinates": [
                4.86222225,
                45.77655585
            ]
        }
    },
    "N13150": {
        "voisins": [
            "N13148",
            "N20236",
            "N13149"
        ],
        "incidence": [
            "T462",
            "T28909",
            "T25470"
        ],
        "nom": "DUCROIZE|BLUM",
        "geometry": {
            "type": "Point",
            "coordinates": [
                4.89536702,
                45.7598649
            ]
        }
    },
    "N30115": {
        "voisins": [
            "N19502"
        ],
        "incidence": [
            "T27192"
        ],
        "nom": "BERNARD",
        "geometry": {
            "type": "Point",
            "coordinates": [
                4.86490371,
                45.78069733
            ]
        }
    },
    "N19502": {
        "voisins": [
            "N30115",
            "N19541",
            "N19484"
        ],
        "incidence": [
            "T27192",
            "T27278",
            "T27193"
        ],
        "nom": "FERMI|BERNARD",
        "geometry": {
            "type": "Point",
            "coordinates": [
                4.8686973,
                45.78153667
            ]
        }
    },
    "N23028": {
        "voisins": [
            "N13420",
            "N10358"
        ],
        "incidence": [
            "T35045",
            "T35046"
        ],
        "nom": "POUDRETTE|CURIE",
        "geometry": {
            "type": "Point",
            "coordinates": [
                4.91810738,
                45.74968465
            ]
        }
    },
    "N13420": {
        "voisins": [
            "N23028",
            "N13216",
            "N13215"
        ],
        "incidence": [
            "T35045",
            "T15004",
            "T430"
        ],
        "nom": "TEILLON|POUDRETTE|BERNHARDT",
        "geometry": {
            "type": "Point",
            "coordinates": [
                4.91854104,
                45.75056316
            ]
        }
    },
    "N10358": {
        "voisins": [
            "N23028",
            "N10359"
        ],
        "incidence": [
            "T35046",
            "T360"
        ],
        "nom": "POUDRETTE|GENAS|BROSSOLETTE",
        "geometry": {
            "type": "Point",
            "coordinates": [
                4.91764977,
                45.7484495
            ]
        }
    },
    "N13036": {
        "voisins": [
            "N20230",
            "N13037",
            "N13026",
            "N13034"
        ],
        "incidence": [
            "T28897",
            "T25489",
            "T14232",
            "T14233"
        ],
        "nom": "RACINE|BECKER",
        "geometry": {
            "type": "Point",
            "coordinates": [
                4.87812358,
                45.76531759
            ]
        }
    },
    "N30594": {
        "voisins": [
            "N30923",
            "N30913",
            "N13597",
            "N30471"
        ],
        "incidence": [
            "T49528",
            "T49507",
            "T49100",
            "T49048"
        ],
        "nom": "SOIE|GOUGES",
        "geometry": {
            "type": "Point",
            "coordinates": [
                4.91873948,
                45.76142387
            ]
        }
    },
    "N30923": {
        "voisins": [
            "N30594",
            "N13594"
        ],
        "incidence": [
            "T49528",
            "T49529"
        ],
        "nom": "SOIE|SEMPRUN",
        "geometry": {
            "type": "Point",
            "coordinates": [
                4.91743544,
                45.76189804
            ]
        }
    },
    "N30913": {
        "voisins": [
            "N30594",
            "N30905",
            "N34958"
        ],
        "incidence": [
            "T49507",
            "T49506",
            "T55570"
        ],
        "nom": "GOUGES|DELBO",
        "geometry": {
            "type": "Point",
            "coordinates": [
                4.91896315,
                45.76148157
            ]
        }
    },
    "N13597": {
        "voisins": [
            "N30594",
            "N30905",
            "N22838"
        ],
        "incidence": [
            "T49100",
            "T49487",
            "T34546"
        ],
        "nom": "SOIE|POUDRETTE",
        "geometry": {
            "type": "Point",
            "coordinates": [
                4.92036415,
                45.7608288
            ]
        }
    },
    "N11296": {
        "voisins": [
            "N2804",
            "N12893"
        ],
        "incidence": [
            "T12965",
            "T891"
        ],
        "nom": "MISTRAL|CHARIAL",
        "geometry": {
            "type": "Point",
            "coordinates": [
                4.87635589,
                45.75691805
            ]
        }
    },
    "N2804": {
        "voisins": [
            "N11296",
            "N2805"
        ],
        "incidence": [
            "T12965",
            "T79"
        ],
        "nom": "MISTRAL|BERT",
        "geometry": {
            "type": "Point",
            "coordinates": [
                4.87615805,
                45.75586855
            ]
        }
    },
    "N12893": {
        "voisins": [
            "N11296",
            "N12894"
        ],
        "incidence": [
            "T891",
            "T20598"
        ],
        "nom": "MISTRAL|BARABAN",
        "geometry": {
            "type": "Point",
            "coordinates": [
                4.87649646,
                45.75772882
            ]
        }
    },
    "N11395": {
        "voisins": [
            "N13193",
            "N13186",
            "N21294",
            "N13190"
        ],
        "incidence": [
            "T25403",
            "T362",
            "T48220",
            "T25402"
        ],
        "nom": "ROSES|KRUGER",
        "geometry": {
            "type": "Point",
            "coordinates": [
                4.90671419,
                45.75388606
            ]
        }
    },
    "N13193": {
        "voisins": [
            "N11395",
            "N13195",
            "N13194"
        ],
        "incidence": [
            "T25403",
            "T24077",
            "T25404"
        ],
        "nom": "ROSES|COMBET",
        "geometry": {
            "type": "Point",
            "coordinates": [
                4.90669427,
                45.75432247
            ]
        }
    },
    "N13186": {
        "voisins": [
            "N11395",
            "N22821",
            "N13187"
        ],
        "incidence": [
            "T362",
            "T408",
            "T25357"
        ],
        "nom": "SOMME|ROSES",
        "geometry": {
            "type": "Point",
            "coordinates": [
                4.90694758,
                45.75256044
            ]
        }
    },
    "N21294": {
        "voisins": [
            "N11395",
            "N22822",
            "N14248"
        ],
        "incidence": [
            "T48220",
            "T34513",
            "T31111"
        ],
        "nom": "KRUGER|BONNEVAY",
        "geometry": {
            "type": "Point",
            "coordinates": [
                4.90788107,
                45.75370845
            ]
        }
    },
    "N13190": {
        "voisins": [
            "N11395",
            "N13187",
            "N13189"
        ],
        "incidence": [
            "T25402",
            "T446",
            "T25401"
        ],
        "nom": "MARNE|KRUGER",
        "geometry": {
            "type": "Point",
            "coordinates": [
                4.90583348,
                45.75404411
            ]
        }
    },
    "N14286": {
        "voisins": [
            "N14287",
            "N14290",
            "N14285"
        ],
        "incidence": [
            "T25326",
            "T25324",
            "T25824"
        ],
        "nom": "MARAIS",
        "geometry": {
            "type": "Point",
            "coordinates": [
                4.90150023,
                45.78222703
            ]
        }
    },
    "N14287": {
        "voisins": [
            "N14286"
        ],
        "incidence": [
            "T25326"
        ],
        "nom": "MARAIS",
        "geometry": {
            "type": "Point",
            "coordinates": [
                4.90295702,
                45.78225272
            ]
        }
    },
    "N14290": {
        "voisins": [
            "N14286",
            "N14291",
            "N14296"
        ],
        "incidence": [
            "T25324",
            "T25327",
            "T25329"
        ],
        "nom": "MARAIS|BUISSON",
        "geometry": {
            "type": "Point",
            "coordinates": [
                4.90139973,
                45.78399764
            ]
        }
    },
    "N14285": {
        "voisins": [
            "N14286",
            "N14281",
            "N14280"
        ],
        "incidence": [
            "T25824",
            "T25267",
            "T25288"
        ],
        "nom": "MARAIS|DOUAUMONT",
        "geometry": {
            "type": "Point",
            "coordinates": [
                4.90160151,
                45.78172708
            ]
        }
    },
    "N12987": {
        "voisins": [
            "N12981",
            "N12986",
            "N11407",
            "N12992"
        ],
        "incidence": [
            "T14166",
            "T20191",
            "T18785",
            "T315"
        ],
        "nom": "REPUBLIQUE|FRANCE",
        "geometry": {
            "type": "Point",
            "coordinates": [
                4.87387824,
                45.76733012
            ]
        }
    },
    "N12985": {
        "voisins": [
            "N12981",
            "N12986",
            "N12984"
        ],
        "incidence": [
            "T22130",
            "T14165",
            "T14163"
        ],
        "nom": "MANSARD|DEDIEU",
        "geometry": {
            "type": "Point",
            "coordinates": [
                4.8726261,
                45.7697197
            ]
        }
    },
    "N14184": {
        "voisins": [
            "N27639"
        ],
        "incidence": [
            "T377"
        ],
        "nom": "RIZE|GRANDCLEMENT",
        "geometry": {
            "type": "Point",
            "coordinates": [
                4.90988609,
                45.76927358
            ]
        }
    },
    "N27639": {
        "voisins": [
            "N14184",
            "N14239",
            "N27638"
        ],
        "incidence": [
            "T377",
            "T43949",
            "T43948"
        ],
        "nom": "RIZE",
        "geometry": {
            "type": "Point",
            "coordinates": [
                4.90700104,
                45.76929199
            ]
        }
    },
    "N30911": {
        "voisins": [
            "N30910",
            "N30908",
            "N13593"
        ],
        "incidence": [
            "T49502",
            "T49503",
            "T49504"
        ],
        "nom": "BUFFIERE|BRANDT",
        "geometry": {
            "type": "Point",
            "coordinates": [
                4.91393748,
                45.76281036
            ]
        }
    },
    "N30910": {
        "voisins": [
            "N30911",
            "N13591",
            "N22835"
        ],
        "incidence": [
            "T49502",
            "T49499",
            "T49500"
        ],
        "nom": "BUFFIERE|BLUM",
        "geometry": {
            "type": "Point",
            "coordinates": [
                4.91378121,
                45.76310163
            ]
        }
    },
    "N30908": {
        "voisins": [
            "N30911",
            "N30472",
            "N30442"
        ],
        "incidence": [
            "T49503",
            "T49496",
            "T49497"
        ],
        "nom": "GOUGES|BUFFIERE",
        "geometry": {
            "type": "Point",
            "coordinates": [
                4.91582838,
                45.76066145
            ]
        }
    },
    "N14018": {
        "voisins": [
            "N32333"
        ],
        "incidence": [
            "T26849"
        ],
        "nom": "LIMONTI",
        "geometry": {
            "type": "Point",
            "coordinates": [
                4.90842668,
                45.7608241
            ]
        }
    },
    "N32333": {
        "voisins": [
            "N14018",
            "N34171",
            "N13480",
            "N13474",
            "N13469"
        ],
        "incidence": [
            "T26849",
            "T54455",
            "T52224",
            "T48437",
            "T14679"
        ],
        "nom": "LIMONTI|BONNEVAY|BLUM",
        "geometry": {
            "type": "Point",
            "coordinates": [
                4.90843654,
                45.76111582
            ]
        }
    },
    "N30149": {
        "voisins": [
            "N13351"
        ],
        "incidence": [
            "T28982"
        ],
        "nom": "LUIZET",
        "geometry": {
            "type": "Point",
            "coordinates": [
                4.8827849,
                45.78077518
            ]
        }
    },
    "N13106": {
        "voisins": [
            "N13107",
            "N13104",
            "N13108"
        ],
        "incidence": [
            "T395",
            "T14301",
            "T14302"
        ],
        "nom": "GLYCINES|1789",
        "geometry": {
            "type": "Point",
            "coordinates": [
                4.89440234,
                45.76497499
            ]
        }
    },
    "N13107": {
        "voisins": [
            "N13106"
        ],
        "incidence": [
            "T395"
        ],
        "nom": "GLYCINES",
        "geometry": {
            "type": "Point",
            "coordinates": [
                4.89436636,
                45.76601999
            ]
        }
    },
    "N13104": {
        "voisins": [
            "N13106",
            "N13103",
            "N13110"
        ],
        "incidence": [
            "T14301",
            "T14299",
            "T432"
        ],
        "nom": "PROGRES|1789",
        "geometry": {
            "type": "Point",
            "coordinates": [
                4.89366257,
                45.76483268
            ]
        }
    },
    "N13108": {
        "voisins": [
            "N13106",
            "N13112",
            "N13109"
        ],
        "incidence": [
            "T14302",
            "T431",
            "T19830"
        ],
        "nom": "FAILLEBIN|1789",
        "geometry": {
            "type": "Point",
            "coordinates": [
                4.89474842,
                45.76504024
            ]
        }
    },
    "N13111": {
        "voisins": [
            "N13497",
            "N13110",
            "N13105"
        ],
        "incidence": [
            "T25471",
            "T28986",
            "T25468",
            "T382"
        ],
        "nom": "SAUVY|MARTIN|BAISSE",
        "geometry": {
            "type": "Point",
            "coordinates": [
                4.89341122,
                45.76209365
            ]
        }
    },
    "N13105": {
        "voisins": [
            "N13111",
            "N19918",
            "N13099"
        ],
        "incidence": [
            "T382",
            "T28145",
            "T19337"
        ],
        "nom": "BAISSE|1789",
        "geometry": {
            "type": "Point",
            "coordinates": [
                4.89282998,
                45.7646416
            ]
        }
    },
    "N13489": {
        "voisins": [
            "N13488"
        ],
        "incidence": [
            "T25741"
        ],
        "nom": "SPREAFICO",
        "geometry": {
            "type": "Point",
            "coordinates": [
                4.87337186,
                45.77800938
            ]
        }
    },
    "N13488": {
        "voisins": [
            "N13489",
            "N13438",
            "N13490"
        ],
        "incidence": [
            "T25741",
            "T25740",
            "T25742"
        ],
        "nom": "SPREAFICO|BRUXELLES",
        "geometry": {
            "type": "Point",
            "coordinates": [
                4.87312731,
                45.77714749
            ]
        }
    },
    "N30213": {
        "voisins": [
            "N12942",
            "N19908",
            "N13387"
        ],
        "incidence": [
            "T48393",
            "T28130",
            "T48392"
        ],
        "nom": "RASPAIL|CENTRE",
        "geometry": {
            "type": "Point",
            "coordinates": [
                4.87965345,
                45.77326642
            ]
        }
    },
    "N12942": {
        "voisins": [
            "N30213",
            "N13384",
            "N19907"
        ],
        "incidence": [
            "T48393",
            "T12080",
            "T28127"
        ],
        "nom": "RASPAIL|BILLON",
        "geometry": {
            "type": "Point",
            "coordinates": [
                4.87897835,
                45.77323221
            ]
        }
    },
    "N19908": {
        "voisins": [
            "N30213",
            "N23289",
            "N19907",
            "N13926"
        ],
        "incidence": [
            "T28130",
            "T35750",
            "T28131",
            "T48399"
        ],
        "nom": "GAULLE|DESNOS|CENTRE",
        "geometry": {
            "type": "Point",
            "coordinates": [
                4.8796648,
                45.77254693
            ]
        }
    },
    "N13387": {
        "voisins": [
            "N30213",
            "N13386",
            "N23289",
            "N13927"
        ],
        "incidence": [
            "T48392",
            "T14595",
            "T35641",
            "T25236"
        ],
        "nom": "VAILLANT|RASPAIL",
        "geometry": {
            "type": "Point",
            "coordinates": [
                4.88077586,
                45.77332339
            ]
        }
    },
    "N13121": {
        "voisins": [
            "N13120"
        ],
        "incidence": [
            "T25541"
        ],
        "nom": "BERGONIER",
        "geometry": {
            "type": "Point",
            "coordinates": [
                4.89751671,
                45.76536087
            ]
        }
    },
    "N13120": {
        "voisins": [
            "N13121",
            "N13117",
            "N13122"
        ],
        "incidence": [
            "T25541",
            "T25535",
            "T25543"
        ],
        "nom": "BERGONIER",
        "geometry": {
            "type": "Point",
            "coordinates": [
                4.8974947,
                45.76493336
            ]
        }
    },
    "N13342": {
        "voisins": [
            "N13343"
        ],
        "incidence": [
            "T25749"
        ],
        "nom": "CLEMENCEAU",
        "geometry": {
            "type": "Point",
            "coordinates": [
                4.88248843,
                45.77708681
            ]
        }
    },
    "N13343": {
        "voisins": [
            "N13342",
            "N14092",
            "N13344"
        ],
        "incidence": [
            "T25749",
            "T25241",
            "T25748"
        ],
        "nom": "FONTANIERES|CLEMENCEAU",
        "geometry": {
            "type": "Point",
            "coordinates": [
                4.88283265,
                45.77714457
            ]
        }
    },
    "N20122": {
        "voisins": [
            "N30153"
        ],
        "incidence": [
            "T48328"
        ],
        "nom": "CLOUZOT",
        "geometry": {
            "type": "Point",
            "coordinates": [
                4.86120175,
                45.77590086
            ]
        }
    },
    "N30153": {
        "voisins": [
            "N20122",
            "N19033",
            "N13794"
        ],
        "incidence": [
            "T48328",
            "T28717",
            "T48329"
        ],
        "nom": "RIVIERE|CLOUZOT",
        "geometry": {
            "type": "Point",
            "coordinates": [
                4.86094956,
                45.77630999
            ]
        }
    },
    "N13913": {
        "voisins": [
            "N13914",
            "N13287"
        ],
        "incidence": [
            "T25477",
            "T25476",
            "T23636"
        ],
        "nom": "CURIE",
        "geometry": {
            "type": "Point",
            "coordinates": [
                4.89721983,
                45.76207205
            ]
        }
    },
    "N13914": {
        "voisins": [
            "N13913",
            "N13412"
        ],
        "incidence": [
            "T25477",
            "T25476",
            "T25475"
        ],
        "nom": "CURIE",
        "geometry": {
            "type": "Point",
            "coordinates": [
                4.8972488,
                45.76190299
            ]
        }
    },
    "N13287": {
        "voisins": [
            "N13913",
            "N20232",
            "N13920"
        ],
        "incidence": [
            "T23636",
            "T28901",
            "T23635"
        ],
        "nom": "CURIE",
        "geometry": {
            "type": "Point",
            "coordinates": [
                4.89634033,
                45.76315065
            ]
        }
    },
    "N12973": {
        "voisins": [
            "N12972",
            "N12996",
            "N12969",
            "N12974"
        ],
        "incidence": [
            "T12027",
            "T12024",
            "T12028",
            "T14144"
        ],
        "nom": "VIVANT|MILLON",
        "geometry": {
            "type": "Point",
            "coordinates": [
                4.86805483,
                45.76745359
            ]
        }
    },
    "N12972": {
        "voisins": [
            "N12973",
            "N12970",
            "N11428"
        ],
        "incidence": [
            "T12027",
            "T14143",
            "T14179"
        ],
        "nom": "MILLON|BOUTIN",
        "geometry": {
            "type": "Point",
            "coordinates": [
                4.86885927,
                45.76745092
            ]
        }
    },
    "N12996": {
        "voisins": [
            "N12973",
            "N12997",
            "N11428",
            "N13012"
        ],
        "incidence": [
            "T12024",
            "T14176",
            "T14177",
            "T48471"
        ],
        "nom": "VIVANT|DEDIEU",
        "geometry": {
            "type": "Point",
            "coordinates": [
                4.86813282,
                45.7695348
            ]
        }
    },
    "N12969": {
        "voisins": [
            "N12973",
            "N12970",
            "N3526",
            "N3527"
        ],
        "incidence": [
            "T12028",
            "T14141",
            "T14139",
            "T14140"
        ],
        "nom": "VIVANT|FRANCE",
        "geometry": {
            "type": "Point",
            "coordinates": [
                4.86801578,
                45.76638077
            ]
        }
    },